[
  {
    "name": "샐러드시티 역삼점",
    "address": "서울특별시 강남구 역삼동 736-58 B2 (위워크빌딩)",
    "phone": "02-555-8501",
    "hours": "월요일~금요일 오전 08:30 ~ 오후 08:30 토요일 오전 10:00 ~ 오후 07:30 일요일 오전 11:30 ~ 오후 07:30",
    "description": "넓은 홀, 감각적인 인테리어, 마스터쉐프, 푸드코트",
    "image": "https://bjcetaznlmqgjvozeeen.supabase.co/storage/v1/object/public/images/Locations/1LOYS08.webp",
    "type": "store"
  },
  {
    "name": "샐러드시티 구디점",
    "address": "서울특별시 구로구 디지털로34길 27, 비101호 (대륭포스트타워3차)",
    "phone": "070-4471-7118",
    "hours": "오전 09:30 ~ 오후 06:00",
    "description": "넓은 홀, 쾌적한 환경, 오픈형 주방, 넓은 주차장, 푸드코트",
    "image": "https://bjcetaznlmqgjvozeeen.supabase.co/storage/v1/object/public/images/Locations/1LOGD03.webp",
    "type": "store"
  },
  {
    "name": "샐러드시티 강동점",
    "address": "서울특별시 강동구 천호대로175길 52 1층 110호 (영일빌딩)",
    "phone": "02-477-8501",
    "hours": "오전 09:00 ~ 오후 08:30",
    "description": "홀 보유, 오픈형 주방, 1층 매장",
    "image": "https://bjcetaznlmqgjvozeeen.supabase.co/storage/v1/object/public/images/Locations/1LOKD01.webp",
    "type": "store"
  },
  {
    "name": "샐러드시티 송파점",
    "address": "서울특별시 송파구 송파대로45길 3-24",
    "phone": "070-4027-7880",
    "hours": "정보 없음",
    "description": "오픈 준비 중",
    "image": "https://bjcetaznlmqgjvozeeen.supabase.co/storage/v1/object/public/images/Locations/1LOSP01.webp",
    "type": "upcoming"
  },
  {
    "name": "샐러드시티 반포점",
    "address": "서울특별시 서초구 신반포로 194",
    "phone": "070-4027-7880",
    "hours": "정보 없음",
    "description": "오픈 준비 중",
    "image": "https://bjcetaznlmqgjvozeeen.supabase.co/storage/v1/object/public/images/Locations/1LOBP001.webp",
    "type": "upcoming"
  },
  {
    "name": "샐러드시티 서초점",
    "address": "서울특별시 서초구 반포대로21길 17",
    "phone": "070-4027-7880",
    "hours": "정보 없음",
    "description": "아웃포스트, 케이터링 매장",
    "image": "https://bjcetaznlmqgjvozeeen.supabase.co/storage/v1/object/public/images/Locations/1LOSC01.webp",
    "type": "outpost"
  },
  {
    "name": "샐러드시티 본사",
    "address": "서울특별시 강남구 테헤란로22길 15",
    "phone": "070-4027-7880",
    "hours": "정보 없음",
    "description": "정보 없음",
    "image": "https://bjcetaznlmqgjvozeeen.supabase.co/storage/v1/object/public/images/Locations/1LOHQ01.webp",
    "type": "headquarter"
  },
  {
    "name": "셀시 채소농장 포천",
    "address": "경기도 포천시 이동면 도리돌길 21",
    "phone": "070-4027-7880",
    "hours": "정보 없음",
    "description": "정보 없음",
    "image": "https://bjcetaznlmqgjvozeeen.supabase.co/storage/v1/object/public/images/Locations/1LOPC01.webp",
    "type": "farm"
  },
  {
    "name": "셀시 채소농장 제천",
    "address": "충청북도 제천시 봉양읍 학산리 725",
    "phone": "070-4027-7880",
    "hours": "정보 없음",
    "description": "정보 없음",
    "image": "https://bjcetaznlmqgjvozeeen.supabase.co/storage/v1/object/public/images/Locations/1LOJC02.webp",
    "type": "farm"
  },
  {
    "name": "샐시 채소전처리공장",
    "address": "경기도 광주시 신현동 5",
    "phone": "070-4027-7880",
    "hours": "정보 없음",
    "description": "정보 없음",
    "image": "https://bjcetaznlmqgjvozeeen.supabase.co/storage/v1/object/public/images/Locations/1LOBD01.webp",
    "type": "factory"
  }
]
